[
    {
        "id": 539967,
        "name": "서울",
        "country": "korea(한국)",
        "coord": {
            "lon": 126.9780,
            "lat": 37.566
        }
    },
    {
        "id": 184745,
        "name": "부산",
        "country": "korea(한국)",
        "coord": {
            "lon": 129.0756,
            "lat": 35.1796
        }
    },
    {
        "id": 183852,
        "name": "인천",
        "country": "korea(한국)",
        "coord": {
            "lon": 126.7052,
            "lat": 37.4563
        }
    },
    {
        "id": 184185,
        "name": "대구",
        "country": "korea(한국)",
        "coord": {
            "lon": 128.6015,
            "lat": 35.8714
        }
    },
    {
        "id": 185850,
        "name": "대전",
        "country": "korea(한국)",
        "coord": {
            "lon": 127.3845,
            "lat": 36.3504
        }
    },
    {
        "id": 184508,
        "name": "광주",
        "country": "korea(한국)",
        "coord": {
            "lon": 126.8512,
            "lat": 35.1595
        }
    },
    {
        "id": 185717,
        "name": "울산",
        "country": "korea(한국)",
        "coord": {
            "lon": 129.3113,
            "lat": 35.5372
        }
    },
    {
        "id": 185166,
        "name": "수원",
        "country": "korea(한국)",
        "coord": {
            "lon": 127.0304,
            "lat": 37.2634
        }
    },
    {
        "id": 184612,
        "name": "창원",
        "country": "korea(한국)",
        "coord": {
            "lon": 128.6828,
            "lat": 35.2289
        }
    },
    {
        "id": 185122,
        "name": "성남",
        "country": "korea(한국)",
        "coord": {
            "lon": 127.1372,
            "lat": 37.4138
        }
    },
    {
        "id": 1850147,
        "name": "도쿄",
        "country": "japan(일본)",
        "coord": {
            "lon": 139.6917,
            "lat": 35.6895
        }
    },
    {
        "id": 1861079,
        "name": "오사카",
        "country": "japan(일본)",
        "coord": {
            "lon": 135.5022,
            "lat": 34.6937
        }
    },
    {
        "id": 1849875,
        "name": "교토",
        "country": "japan(일본)",
        "coord": {
            "lon": 135.7681,
            "lat": 35.0116
        }
    },
    {
        "id": 1862110,
        "name": "고베",
        "country": "japan(일본)",
        "coord": {
            "lon": 135.1955,
            "lat": 34.6901
        }
    },
    {
        "id": 1853903,
        "name": "후쿠오카",
        "country": "japan(일본)",
        "coord": {
            "lon": 130.4017,
            "lat": 33.5897
        }
    },
    {
        "id": 1849779,
        "name": "삿포로",
        "country": "japan(일본)",
        "coord": {
            "lon": 141.3545,
            "lat": 43.0618
        }
    },
    {
        "id": 1844672,
        "name": "히로시마",
        "country": "japan(일본)",
        "coord": {
            "lon": 132.4553,
            "lat": 34.3963
        }
    },
    {
        "id": 1847471,
        "name": "나고야",
        "country": "japan(일본)",
        "coord": {
            "lon": 136.9066,
            "lat": 35.1815
        }
    },
    {
        "id": 1852921,
        "name": "센다이",
        "country": "japan(일본)",
        "coord": {
            "lon": 140.8686,
            "lat": 38.2682
        }
    },
    {
        "id": 1853902,
        "name": "고쿠라",
        "country": "japan(일본)",
        "coord": {
            "lon": 130.8749,
            "lat": 33.8831
        }
    },
    {
        "id": 1609350,
        "name": "방콕",
        "country": "thailand(태국)",
        "coord": {
            "lon": 100.5167,
            "lat": 13.7500
        }
    },
    {
        "id": 1604442,
        "name": "치앙마이",
        "country": "thailand(태국)",
        "coord": {
            "lon": 98.9793,
            "lat": 18.7883
        }
    },
    {
        "id": 1605247,
        "name": "푸켓",
        "country": "thailand(태국)",
        "coord": {
            "lon": 98.2932,
            "lat": 7.8804
        }
    },
    {
        "id": 1608924,
        "name": "파타야",
        "country": "thailand(태국)",
        "coord": {
            "lon": 100.8821,
            "lat": 12.9290
        }
    },
    {
        "id": 1609220,
        "name": "아유타야",
        "country": "thailand(태국)",
        "coord": {
            "lon": 100.5970,
            "lat": 14.3530
        }
    },
    {
        "id": 1606350,
        "name": "코랏",
        "country": "thailand(태국)",
        "coord": {
            "lon": 102.1057,
            "lat": 15.0020
        }
    },
    {
        "id": 1604289,
        "name": "나콘랏차시마",
        "country": "thailand(태국)",
        "coord": {
            "lon": 102.0402,
            "lat": 14.9700
        }
    },
    {
        "id": 1602812,
        "name": "하위산",
        "country": "thailand(태국)",
        "coord": {
            "lon": 98.8673,
            "lat": 13.1616
        }
    },
    {
        "id": 1605753,
        "name": "수코타이",
        "country": "thailand(태국)",
        "coord": {
            "lon": 99.8195,
            "lat": 17.0176
        }
    },
    {
        "id": 1607214,
        "name": "수랏타니",
        "country": "thailand(태국)",
        "coord": {
            "lon": 99.1445,
            "lat": 9.1581
        }
    },
    {
        "id": 1796236,
        "name": "베이징",
        "country": "china(중국)",
        "coord": {
            "lon": 116.4074,
            "lat": 39.9042
        }
    },
    {
        "id": 1816670,
        "name": "상하이",
        "country": "china(중국)",
        "coord": {
            "lon": 121.4737,
            "lat": 31.2304
        }
    },
    {
        "id": 1796237,
        "name": "광저우",
        "country": "china(중국)",
        "coord": {
            "lon": 113.2644,
            "lat": 23.1291
        }
    },
    {
        "id": 1796235,
        "name": "선전",
        "country": "china(중국)",
        "coord": {
            "lon": 114.0579,
            "lat": 22.5431
        }
    },
    {
        "id": 1819730,
        "name": "칭다오",
        "country": "china(중국)",
        "coord": {
            "lon": 120.3826,
            "lat": 36.0671
        }
    },
    {
        "id": 1792893,
        "name": "청두",
        "country": "china(중국)",
        "coord": {
            "lon": 104.0665,
            "lat": 30.5728
        }
    },
    {
        "id": 1814818,
        "name": "시안",
        "country": "china(중국)",
        "coord": {
            "lon": 108.9398,
            "lat": 34.3416
        }
    },
    {
        "id": 1799073,
        "name": "항저우",
        "country": "china(중국)",
        "coord": {
            "lon": 120.1551,
            "lat": 30.2741
        }
    },
    {
        "id": 1801857,
        "name": "난징",
        "country": "china(중국)",
        "coord": {
            "lon": 118.7969,
            "lat": 32.0603
        }
    },
    {
        "id": 1791161,
        "name": "위해",
        "country": "china(중국)",
        "coord": {
            "lon": 119.1193,
            "lat": 37.5366
        }
    },
    {
        "id": 5128582,
        "name": "뉴욕",
        "country": "usa(미국)",
        "coord": {
            "lon": -74.0060,
            "lat": 40.7128
        }
    },
    {
        "id": 5392171,
        "name": "로스앤젤레스",
        "country": "usa(미국)",
        "coord": {
            "lon": -118.2437,
            "lat": 34.0522
        }
    },
    {
        "id": 4887398,
        "name": "시카고",
        "country": "usa(미국)",
        "coord": {
            "lon": -87.6298,
            "lat": 41.8781
        }
    },
    {
        "id": 5344357,
        "name": "휴스턴",
        "country": "usa(미국)",
        "coord": {
            "lon": -95.3698,
            "lat": 29.7604
        }
    },
    {
        "id": 5308655,
        "name": "피닉스",
        "country": "usa(미국)",
        "coord": {
            "lon": -112.0740,
            "lat": 33.4484
        }
    },
    {
        "id": 2643743,
        "name": "미니애폴리스",
        "country": "usa(미국)",
        "coord": {
            "lon": -93.2650,
            "lat": 44.9778
        }
    },
    {
        "id": 4671654,
        "name": "댈러스",
        "country": "usa(미국)",
        "coord": {
            "lon": -96.7970,
            "lat": 32.7767
        }
    },
    {
        "id": 4174757,
        "name": "샌프란시스코",
        "country": "usa(미국)",
        "coord": {
            "lon": -122.4194,
            "lat": 37.7749
        }
    },
    {
        "id": 5856196,
        "name": "워싱턴 D.C.",
        "country": "usa(미국)",
        "coord": {
            "lon": -77.0369,
            "lat": 38.9072
        }
    },
    {
        "id": 5128581,
        "name": "보스턴",
        "country": "usa(미국)",
        "coord": {
            "lon": -71.0589,
            "lat": 42.3601
        }
    },
    {
        "id": 2147714,
        "name": "시드니",
        "country": "australia(호주)",
        "coord": {
            "lon": 151.2093,
            "lat": -33.8688
        }
    },
    {
        "id": 2063523,
        "name": "멜버른",
        "country": "australia(호주)",
        "coord": {
            "lon": 144.9631,
            "lat": -37.8136
        }
    },
    {
        "id": 2174003,
        "name": "브리즈번",
        "country": "australia(호주)",
        "coord": {
            "lon": 153.0251,
            "lat": -27.4698
        }
    },
    {
        "id": 2158177,
        "name": "애들레이드",
        "country": "australia(호주)",
        "coord": {
            "lon": 138.6007,
            "lat": -34.9285
        }
    },
    {
        "id": 2179537,
        "name": "퍼스",
        "country": "australia(호주)",
        "coord": {
            "lon": 115.8575,
            "lat": -31.9505
        }
    },
    {
        "id": 2177974,
        "name": "호바트",
        "country": "australia(호주)",
        "coord": {
            "lon": 147.3294,
            "lat": -42.8806
        }
    },
    {
        "id": 2179538,
        "name": "캔버라",
        "country": "australia(호주)",
        "coord": {
            "lon": 149.1287,
            "lat": -35.2809
        }
    },
    {
        "id": 2174749,
        "name": "다윈",
        "country": "australia(호주)",
        "coord": {
            "lon": 130.8456,
            "lat": -12.4634
        }
    },
    {
        "id": 2145880,
        "name": "골드코스트",
        "country": "australia(호주)",
        "coord": {
            "lon": 153.4000,
            "lat": -28.0167
        }
    },
    {
        "id": 2175639,
        "name": "뉴캐슬",
        "country": "australia(호주)",
        "coord": {
            "lon": 151.7443,
            "lat": -32.9283
        }
    },
    {
        "id": 2643744,
        "name": "런던",
        "country": "uk(영국)",
        "coord": {
            "lon": -0.1276,
            "lat": 51.5074
        }
    },
    {
        "id": 2643123,
        "name": "맨체스터",
        "country": "uk(영국)",
        "coord": {
            "lon": -2.2426,
            "lat": 53.4808
        }
    },
    {
        "id": 2653941,
        "name": "버밍엄",
        "country": "uk(영국)",
        "coord": {
            "lon": -1.9025,
            "lat": 52.4862
        }
    },
    {
        "id": 2643120,
        "name": "브리스틀",
        "country": "uk(영국)",
        "coord": {
            "lon": -2.5879,
            "lat": 51.4545
        }
    },
    {
        "id": 2654674,
        "name": "글래스고",
        "country": "uk(영국)",
        "coord": {
            "lon": -4.2518,
            "lat": 55.8642
        }
    },
    {
        "id": 2650225,
        "name": "리버풀",
        "country": "uk(영국)",
        "coord": {
            "lon": -2.9779,
            "lat": 53.4084
        }
    },
    {
        "id": 2654632,
        "name": "레스터",
        "country": "uk(영국)",
        "coord": {
            "lon": -1.1296,
            "lat": 52.6369
        }
    },
    {
        "id": 2643124,
        "name": "에딘버러",
        "country": "uk(영국)",
        "coord": {
            "lon": -3.1883,
            "lat": 55.9533
        }
    },
    {
        "id": 2641170,
        "name": "카디프",
        "country": "uk(영국)",
        "coord": {
            "lon": -3.1791,
            "lat": 51.4816
        }
    },
    {
        "id": 2657085,
        "name": "노리치",
        "country": "uk(영국)",
        "coord": {
            "lon": 1.2924,
            "lat": 52.6282
        }
    },
    {
        "id": 2988507,
        "name": "파리",
        "country": "france(프랑스)",
        "coord": {
            "lon": 2.3522,
            "lat": 48.8566
        }
    },
    {
        "id": 2988508,
        "name": "마르세유",
        "country": "france(프랑스)",
        "coord": {
            "lon": 5.3698,
            "lat": 43.2965
        }
    },
    {
        "id": 2988509,
        "name": "리옹",
        "country": "france(프랑스)",
        "coord": {
            "lon": 4.8357,
            "lat": 45.7640
        }
    },
    {
        "id": 2988510,
        "name": "니스",
        "country": "france(프랑스)",
        "coord": {
            "lon": 7.2619,
            "lat": 43.7102
        }
    },
    {
        "id": 2988511,
        "name": "툴루즈",
        "country": "france(프랑스)",
        "coord": {
            "lon": 1.4442,
            "lat": 43.6047
        }
    },
    {
        "id": 2988512,
        "name": "몬펠리에",
        "country": "france(프랑스)",
        "coord": {
            "lon": 3.8767,
            "lat": 43.6110
        }
    },
    {
        "id": 2988513,
        "name": "스트라스부르",
        "country": "france(프랑스)",
        "coord": {
            "lon": 7.7521,
            "lat": 48.5734
        }
    },
    {
        "id": 2988514,
        "name": "보르도",
        "country": "france(프랑스)",
        "coord": {
            "lon": -0.5792,
            "lat": 44.8378
        }
    },
    {
        "id": 2988515,
        "name": "리모주",
        "country": "france(프랑스)",
        "coord": {
            "lon": 1.2613,
            "lat": 45.8663
        }
    },
    {
        "id": 2988516,
        "name": "아비뇽",
        "country": "france(프랑스)",
        "coord": {
            "lon": 4.8055,
            "lat": 43.9493
        }
    },
    {
        "id": 2514622,
        "name": "마드리드",
        "country": "spain(스페인)",
        "coord": {
            "lon": -3.7038,
            "lat": 40.4168
        }
    },
    {
        "id": 2510769,
        "name": "바르셀로나",
        "country": "spain(스페인)",
        "coord": {
            "lon": 2.1734,
            "lat": 41.3851
        }
    },
    {
        "id": 2518001,
        "name": "발렌시아",
        "country": "spain(스페인)",
        "coord": {
            "lon": -0.3774,
            "lat": 39.4699
        }
    },
    {
        "id": 2510802,
        "name": "세비야",
        "country": "spain(스페인)",
        "coord": {
            "lon": -5.9732,
            "lat": 37.3886
        }
    },
    {
        "id": 2512644,
        "name": "말라가",
        "country": "spain(스페인)",
        "coord": {
            "lon": -4.4203,
            "lat": 36.7213
        }
    },
    {
        "id": 2514380,
        "name": "바야돌리드",
        "country": "spain(스페인)",
        "coord": {
            "lon": -4.7285,
            "lat": 41.6520
        }
    },
    {
        "id": 2514574,
        "name": "빌바오",
        "country": "spain(스페인)",
        "coord": {
            "lon": -2.9340,
            "lat": 43.2630
        }
    },
    {
        "id": 2513240,
        "name": "자라고사",
        "country": "spain(스페인)",
        "coord": {
            "lon": -0.8814,
            "lat": 41.6488
        }
    },
    {
        "id": 2516256,
        "name": "테네리페",
        "country": "spain(스페인)",
        "coord": {
            "lon": -16.2515,
            "lat": 28.2916
        }
    },
    {
        "id": 2512569,
        "name": "카르타헤나",
        "country": "spain(스페인)",
        "coord": {
            "lon": -0.9867,
            "lat": 37.6000
        }
    },
    {
        "id": 3169070,
        "name": "로마",
        "country": "italy(이탈리아)",
        "coord": {
            "lon": 12.4964,
            "lat": 41.9028
        }
    },
    {
        "id": 3172394,
        "name": "밀라노",
        "country": "italy(이탈리아)",
        "coord": {
            "lon": 9.1905,
            "lat": 45.4654
        }
    },
    {
        "id": 3170725,
        "name": "나폴리",
        "country": "italy(이탈리아)",
        "coord": {
            "lon": 14.2681,
            "lat": 40.8522
        }
    },
    {
        "id": 3167739,
        "name": "토리노",
        "country": "italy(이탈리아)",
        "coord": {
            "lon": 7.6869,
            "lat": 45.0703
        }
    },
    {
        "id": 3164070,
        "name": "피렌체",
        "country": "italy(이탈리아)",
        "coord": {
            "lon": 11.2558,
            "lat": 43.7696
        }
    },
    {
        "id": 3161033,
        "name": "볼로냐",
        "country": "italy(이탈리아)",
        "coord": {
            "lon": 11.2568,
            "lat": 44.4937
        }
    },
    {
        "id": 3161555,
        "name": "베네치아",
        "country": "italy(이탈리아)",
        "coord": {
            "lon": 12.3155,
            "lat": 45.4408
        }
    },
    {
        "id": 3163587,
        "name": "제노바",
        "country": "italy(이탈리아)",
        "coord": {
            "lon": 8.9443,
            "lat": 44.4056
        }
    },
    {
        "id": 3163856,
        "name": "카타니아",
        "country": "italy(이탈리아)",
        "coord": {
            "lon": 15.0873,
            "lat": 37.5079
        }
    },
    {
        "id": 3173435,
        "name": "팔레르모",
        "country": "italy(이탈리아)",
        "coord": {
            "lon": 13.3615,
            "lat": 38.1157
        }
    },
    {
        "id": 1642911,
        "name": "자카르타",
        "country": "indonesia(인도네시아)",
        "coord": {
            "lon": 106.8294,
            "lat": -6.1744
        }
    },
    {
        "id": 1643794,
        "name": "수라바야",
        "country": "indonesia(인도네시아)",
        "coord": {
            "lon": 112.7521,
            "lat": -7.2504
        }
    },
    {
        "id": 1647911,
        "name": "반둥",
        "country": "indonesia(인도네시아)",
        "coord": {
            "lon": 107.6191,
            "lat": -6.9175
        }
    },
    {
        "id": 1636755,
        "name": "메단",
        "country": "indonesia(인도네시아)",
        "coord": {
            "lon": 98.6789,
            "lat": 3.5957
        }
    },
    {
        "id": 1626506,
        "name": "디포크",
        "country": "indonesia(인도네시아)",
        "coord": {
            "lon": 106.8232,
            "lat": -6.4054
        }
    },
    {
        "id": 1631376,
        "name": "셰마랑",
        "country": "indonesia(인도네시아)",
        "coord": {
            "lon": 110.3677,
            "lat": -7.0055
        }
    },
    {
        "id": 1626546,
        "name": "박사르",
        "country": "indonesia(인도네시아)",
        "coord": {
            "lon": 106.7575,
            "lat": -6.3975
        }
    },
    {
        "id": 1632896,
        "name": "팔랑카라야",
        "country": "indonesia(인도네시아)",
        "coord": {
            "lon": 113.9213,
            "lat": -2.2111
        }
    },
    {
        "id": 1633029,
        "name": "바텀",
        "country": "indonesia(인도네시아)",
        "coord": {
            "lon": 104.4443,
            "lat": -3.9833
        }
    },
    {
        "id": 1631282,
        "name": "마카사르",
        "country": "indonesia(인도네시아)",
        "coord": {
            "lon": 119.4179,
            "lat": -5.1478
        }
    },
    {
        "id": 1733042,
        "name": "쿠알라룸푸르",
        "country": "malaysia(말레이시아)",
        "coord": {
            "lon": 101.6869,
            "lat": 3.1390
        }
    },
    {
        "id": 1735108,
        "name": "조호르바루",
        "country": "malaysia(말레이시아)",
        "coord": {
            "lon": 103.8005,
            "lat": 1.4927
        }
    },
    {
        "id": 1735627,
        "name": "페타링지",
        "country": "malaysia(말레이시아)",
        "coord": {
            "lon": 100.5161,
            "lat": 5.4097
        }
    },
    {
        "id": 1732763,
        "name": "페낭",
        "country": "malaysia(말레이시아)",
        "coord": {
            "lon": 100.3354,
            "lat": 5.4160
        }
    },
    {
        "id": 1735151,
        "name": "알로르세타르",
        "country": "malaysia(말레이시아)",
        "coord": {
            "lon": 100.3659,
            "lat": 6.1151
        }
    },
    {
        "id": 1733693,
        "name": "쿠칭",
        "country": "malaysia(말레이시아)",
        "coord": {
            "lon": 110.3608,
            "lat": 1.5539
        }
    },
    {
        "id": 1735306,
        "name": "마르두카",
        "country": "malaysia(말레이시아)",
        "coord": {
            "lon": 103.4084,
            "lat": 5.8988
        }
    },
    {
        "id": 1732960,
        "name": "이포",
        "country": "malaysia(말레이시아)",
        "coord": {
            "lon": 101.0957,
            "lat": 4.5990
        }
    },
    {
        "id": 1732994,
        "name": "사바",
        "country": "malaysia(말레이시아)",
        "coord": {
            "lon": 116.1227,
            "lat": 5.9707
        }
    },
    {
        "id": 1733326,
        "name": "셀랑고르",
        "country": "malaysia(말레이시아)",
        "coord": {
            "lon": 101.4978,
            "lat": 3.0738
        }
    },
    {
        "id": 1668352,
        "name": "타이베이",
        "country": "taiwan(대만)",
        "coord": {
            "lon": 121.5654,
            "lat": 25.0324
        }
    },
    {
        "id": 1673493,
        "name": "타이중",
        "country": "taiwan(대만)",
        "coord": {
            "lon": 120.6622,
            "lat": 24.1477
        }
    },
    {
        "id": 1675682,
        "name": "타이난",
        "country": "taiwan(대만)",
        "coord": {
            "lon": 120.1905,
            "lat": 22.9999
        }
    },
    {
        "id": 1672931,
        "name": "가오슝",
        "country": "taiwan(대만)",
        "coord": {
            "lon": 120.3014,
            "lat": 22.6273
        }
    },
    {
        "id": 1819729,
        "name": "홍콩",
        "country": "hongkong(홍콩)",
        "coord": {
            "lon": 114.1095,
            "lat": 22.3964
        }
    },
    {
        "id": 2430001,
        "name": "몰디브",
        "country": "maldives(몰디브)",
        "coord": {
            "lon": 73.5145,
            "lat": 3.2028
        }
    },
    {
        "id": 1648927,
        "name": "발리",
        "country": "indonesia(인도네시아)",
        "coord": {
            "lon": 115.1889,
            "lat": -8.4095
        }
    },
    {
        "id": 2215767,
        "name": "세이셸",
        "country": "seychelles(세이셸)",
        "coord": {
            "lon": 55.4915,
            "lat": -4.5833
        }
    },
    {
        "id": 2210657,
        "name": "자한다",
        "country": "tanzania(탄자니아)",
        "coord": {
            "lon": 39.2026,
            "lat": -6.1659
        }
    },
    {
        "id": 1893458,
        "name": "마요르카",
        "country": "spain(스페인)",
        "coord": {
            "lon": 2.6500,
            "lat": 39.6953
        }
    },
    {
        "id": 2266662,
        "name": "시크리트베이",
        "country": "greece(그리스)",
        "coord": {
            "lon": 24.8700,
            "lat": 35.3017
        }
    },
    {
        "id": 1892958,
        "name": "하와이",
        "country": "united states(미국)",
        "coord": {
            "lon": -156.6819,
            "lat": 21.3069
        }
    },
    {
        "id": 1771569,
        "name": "코사무이",
        "country": "thailand(태국)",
        "coord": {
            "lon": 99.9400,
            "lat": 9.5120
        }
    },
    {
        "id": 1581110,
        "name": "하롱베이",
        "country": "vietnam(베트남)",
        "coord": {
            "lon": 107.0833,
            "lat": 20.9500
        }
    },
    {
        "id": 1580537,
        "name": "호이안",
        "country": "vietnam(베트남)",
        "coord": {
            "lon": 108.2470,
            "lat": 15.8800
        }
    },
    {
        "id": 1580130,
        "name": "후에",
        "country": "vietnam(베트남)",
        "coord": {
            "lon": 107.5859,
            "lat": 13.9624
        }
    },
    {
        "id": 1583044,
        "name": "다랏",
        "country": "vietnam(베트남)",
        "coord": {
            "lon": 108.4400,
            "lat": 11.9400
        }
    },
    {
        "id": 1580829,
        "name": "하노이",
        "country": "vietnam(베트남)",
        "coord": {
            "lon": 105.8542,
            "lat": 21.0285
        }
    },
    {
        "id": 1577025,
        "name": "호치민시",
        "country": "vietnam(베트남)",
        "coord": {
            "lon": 106.6297,
            "lat": 10.8231
        }
    },
    {
        "id": 1578712,
        "name": "푸쿠옥",
        "country": "vietnam(베트남)",
        "coord": {
            "lon": 103.9600,
            "lat": 10.2300
        }
    },
    {
        "id": 1578692,
        "name": "닌호아",
        "country": "vietnam(베트남)",
        "coord": {
            "lon": 109.1900,
            "lat": 12.2500
        }
    },
    {
        "id": 1577453,
        "name": "카인호아",
        "country": "vietnam(베트남)",
        "coord": {
            "lon": 109.2500,
            "lat": 12.2300
        }
    },
    {
        "id": 1576150,
        "name": "하이퐁",
        "country": "vietnam(베트남)",
        "coord": {
            "lon": 106.7009,
            "lat": 20.8441
        }
    },
    {
        "id": 1696060,
        "name": "엘니도",
        "country": "philippines(필리핀)",
        "coord": {
            "lon": 119.3833,
            "lat": 11.2000
        }
    },
    {
        "id": 1693985,
        "name": "보라카이",
        "country": "philippines(필리핀)",
        "coord": {
            "lon": 121.9340,
            "lat": 11.9670
        }
    },
    {
        "id": 1692682,
        "name": "세부",
        "country": "philippines(필리핀)",
        "coord": {
            "lon": 123.8854,
            "lat": 10.3157
        }
    },
    {
        "id": 1693344,
        "name": "타가이타이",
        "country": "philippines(필리핀)",
        "coord": {
            "lon": 120.8833,
            "lat": 14.1000
        }
    },
    {
        "id": 1696359,
        "name": "다바오",
        "country": "philippines(필리핀)",
        "coord": {
            "lon": 125.6133,
            "lat": 7.1901
        }
    },
    {
        "id": 1693744,
        "name": "바기오",
        "country": "philippines(필리핀)",
        "coord": {
            "lon": 120.3962,
            "lat": 16.4023
        }
    },
    {
        "id": 1693888,
        "name": "마닐라",
        "country": "philippines(필리핀)",
        "coord": {
            "lon": 120.9842,
            "lat": 14.5995
        }
    },
    {
        "id": 1693487,
        "name": "로하스",
        "country": "philippines(필리핀)",
        "coord": {
            "lon": 121.8050,
            "lat": 13.3667
        }
    },
    {
        "id": 1693854,
        "name": "카가얀데오로",
        "country": "philippines(필리핀)",
        "coord": {
            "lon": 124.6471,
            "lat": 8.4847
        }
    },
    {
        "id": 1692720,
        "name": "일로코스",
        "country": "philippines(필리핀)",
        "coord": {
            "lon": 120.3880,
            "lat": 18.1652
        }
    }
]
 
 
 

